Altitude,Roll,Yaw,Airspeed,Pitch,X Acceleration,Y Acceleration,Z Acceleration,Vertical Velocity,Time
1.00282,0,0,0,0,0,0,0,0,0
1.00282,0,0,0.0710915,0,0.118377,0,0.0188451,0,0.11
1.00282,0,0,0.550286,0,0.927651,0,0.0189036,0,0.22
1.00282,0,0,1.0302,0,1.73692,0,0.0189036,0,0.33
1.00282,0,0,1.51014,0,2.54619,0,0.0189121,0,0.44
1.00282,0,0,1.99008,0,3.35544,0,0.0189125,0,0.55
1.00282,0,0,2.47002,0,4.16468,0,0.0189123,0,0.66
1.00282,0,0,2.94995,0,4.9739,0,0.0189121,0,0.77
1.00282,0,0,3.42986,0,5.7831,0,0.0189119,0,0.88
1.00282,0,0,3.90976,0,6.59227,0,0.0189116,0,0.99
1.00282,0,0,4.34602,0,7.40141,0,0.0189204,0,1.1
1.00282,0,0,4.82589,0,8.13696,0,0.01892,0,1.2
1.00282,0,0,5.30573,0,9.01959,0,0.0189196,0,1.32
1.00282,0,0,5.78555,0,9.75507,0,0.0189192,0,1.42
1.00282,0,0,5.90781,0,9.9612,0,0.0189191,0,1.53
1.00282,0,0,5.9736,0,10.0721,0,0.0189416,0,1.64
1.00282,0,0,6.0394,0,10.1831,0,0.0189429,0,1.75
1.00282,0,0,5.38866,0,9.08585,0,0.0189434,0,1.86
1.00282,0,0,4.40358,0,7.42491,0,0.0189442,0,1.97
1.00282,0,0,3.41856,0,5.76404,0,0.0189448,0,2.08
1.00282,0,0,2.43357,0,4.10323,0,0.0189453,0,2.19
1.00282,0,0,1.44862,0,2.44246,0,0.0189769,0,2.3
1.00282,0,0,0.463756,0,0.781713,0,0.0189771,0,2.41
1.00282,0,0,0.0148477,0,0.0174846,0,0.0179175,0,2.52
1.00282,0,0,0,0,0,0,0,0,2.63
1.00282,0,0,0,0,0,0,0,0,2.74
1.00282,0,0,0,0,0.0174846,0,0.0179256,0,2.85
1.00282,0,0,0,0,0,0,0,0,2.96
1.00282,0,0,0.0148512,0,0.0174846,0,0.0179256,0,3.07
1.00282,0,0,0.0771076,0,0.142615,0,0.0189862,0,3.18
1.00282,0,0,0.213443,0,0.359387,0,0.0189862,0,3.29
1.00282,0,0,0.372559,0,0.627889,0,0.0189862,0,3.4
1.00282,0,0,0.608972,0,1.02662,0,0.0189862,0,3.5
1.00282,0,0,0.930861,0,1.62356,0,0.0189862,0,3.62
1.00282,0,0,1.29597,0,2.18506,0,0.0189861,0,3.72
1.00282,0,0,1.66608,0,2.80913,0,0.018986,0,3.83
1.00282,0,0,2.05117,0,3.45844,0,0.0189859,0,3.94
1.00282,0,0,2.50879,0,4.23006,0,0.0189893,0,4.05
1.00282,0,0,3.06945,0,5.17539,0,0.0189891,0,4.17
1.00282,0,0,3.81211,0,6.42761,0,0.0189887,0,4.27
1.00282,0,0,4.70599,0,8.08995,0,0.018988,0,4.38
1.00282,0,0,5.81014,0,9.79652,0,0.0189872,0,4.49
1.00282,0,0,6.73021,0,11.3479,0,0.0189863,0,4.59
1.00282,0,0,7.74223,0,13.2094,0,0.0190013,0,4.71
1.00282,0,0,8.75417,0,14.7605,0,0.0189999,0,4.82
1.00282,0,0,9.85801,0,16.6217,0,0.0189984,0,4.93
1.00282,0,0,10.8698,0,18.3276,0,0.0189968,0,5.04
1.00282,0,0,11.7877,0,19.8754,0,0.0189952,0,5.14
1.00282,0,0,12.6982,0,21.4105,0,0.0190316,0,5.25
1.00282,0,0,13.3816,0,22.5629,0,0.0190301,0,5.37
1.00282,0,0,13.8523,0,23.3566,0,0.0190291,0,5.47
1.00282,0,0,14.1406,0,23.8427,0,0.0190285,0,5.58
1.00282,0,0,14.3832,0,24.2517,0,0.0190279,0,5.69
1.00282,0,0,14.7062,0,24.7963,0,0.0190272,0,5.8
1.00282,0,0,15.0943,0,25.4506,0,0.0190967,0,5.92
1.00282,0,0,15.4556,0,26.1209,0,0.0190958,0,6.02
1.00282,0,0,15.888,0,26.7889,0,0.0190948,0,6.13
1.00282,0,0,16.2079,0,27.3283,0,0.019094,0,6.24
1.00282,0,0,16.3533,0,27.5734,0,0.0190935,0,6.34
1.00282,0,0,15.6966,0,26.4661,0,0.0191778,0,6.46
1.00282,0,0,14.6936,0,24.7749,0,0.0191803,0,6.57
1.00282,0,0,13.6907,0,23.084,0,0.0191824,0,6.67
1.00282,0,0,12.5968,0,21.2396,0,0.0191847,0,6.79
1.00282,0,0,11.6854,0,19.7028,0,0.0191865,0,6.9
1.00282,0,0,10.6829,0,18.0125,0,0.0191883,0,7
1.00282,0,0,9.6805,0,16.3224,0,0.0192725,0,7.12
1.00282,0,0,8.67823,0,14.6324,0,0.0192739,0,7.22
1.00282,0,0,7.67605,0,12.9427,0,0.0192752,0,7.33
1.00282,0,0,6.67395,0,11.253,0,0.0192764,0,7.44
1.00282,0,0,5.67191,0,9.56345,0,0.0192774,0,7.55
1.00282,0,0,4.66994,0,7.874,0,0.0193286,0,7.67
1.00282,0,0,3.75775,0,6.18173,0,0.0193292,0,7.77
1.00282,0,0,2.75164,0,4.4853,0,0.0193297,0,7.88
1.00282,0,0,1.6541,0,2.78893,0,0.0193301,0,7.99
1.00282,0,0,0.73954,0,1.2468,0,0.0193303,0,8.1
1.00282,0,0,0.0213042,0,0.0303164,0,0.019268,0,8.21
1.00282,0,0,0.0957391,0,0.160262,0,0.0193558,0,8.32
1.00282,0,0,0.21605,0,0.385538,0,0.0193558,0,8.43
1.00282,0,0,0.410964,0,0.69266,0,0.0193558,0,8.54
1.00282,0,0,0.641593,0,1.08162,0,0.0193558,0,8.64
1.00282,0,0,1.00402,0,1.69278,0,0.0193558,0,8.75
1.00282,0,0,1.5037,0,2.53532,0,0.0193579,0,8.86
1.00282,0,0,2.32468,0,3.91962,0,0.0193577,0,8.97
1.00282,0,0,3.33676,0,5.62612,0,0.0193572,0,9.08
1.00282,0,0,4.34901,0,7.33288,0,0.0193566,0,9.19
1.00282,0,0,5.36122,0,9.03958,0,0.0193559,0,9.3
1.00282,0,0,6.37337,0,10.7462,0,0.0193549,0,9.41
1.00282,0,0,7.38547,0,12.4527,0,0.0193634,0,9.52
1.00282,0,0,8.39749,0,14.1591,0,0.0193621,0,9.63
1.00282,0,0,9.40944,0,15.8653,0,0.0193607,0,9.74
1.00282,0,0,10.3293,0,17.4163,0,0.0193592,0,9.84
1.00282,0,0,11.3411,0,19.1223,0,0.0193573,0,9.96
1.00282,0,0,12.3527,0,20.9831,0,0.019393,0,10.07
1.00282,0,0,13.3642,0,22.6886,0,0.0193909,0,10.18
1.00282,0,0,14.4676,0,24.3939,0,0.0193887,0,10.29
1.00282,0,0,15.3869,0,25.944,0,0.0193864,0,10.39
1.00282,0,0,16.398,0,27.6488,0,0.0193839,0,10.5
1.00282,0,0,17.4089,0,29.3533,0,0.0193808,0,10.62
1.00282,0,0,18.4197,0,31.0576,0,0.0194464,0,10.72
1.00282,0,0,19.4302,0,32.7615,0,0.0194433,0,10.83
1.00282,0,0,20.4406,0,34.4651,0,0.01944,0,10.94
1.00282,0,0,21.4508,0,36.1684,0,0.0194366,0,11.05
1.00282,0,0,22.4608,0,37.8713,0,0.019433,0,11.17
1.00282,0,0,23.4705,0,39.5738,0,0.0195295,0,11.27
1.00282,0,0,24.48,0,41.276,0,0.0195256,0,11.38
1.00282,0,0,25.4892,0,42.9777,0,0.0195215,0,11.49
1.00282,0,0,26.4065,0,44.679,0,0.0195172,0,11.6
1.00282,0,0,27.4153,0,46.2252,0,0.0195128,0,11.71
1.00282,0,0,28.4238,0,47.9256,0,0.0195086,0,11.81
1.00282,0,0,29.4319,0,49.78,0,0.0196205,0,11.93
1.00282,0,0,30.5315,0,51.4794,0,0.0196155,0,12.04
1.00282,0,0,31.4474,0,53.0239,0,0.0196108,0,12.14
1.00282,0,0,32.4547,0,54.7222,0,0.0196051,0,12.26
1.00282,0,0,33.4617,0,56.4201,0,0.0196001,0,12.36
1.00282,0,0,34.4683,0,58.1173,0,0.0197532,0,12.47
1.00282,0,0,35.4745,0,59.814,0,0.0197474,0,12.58
1.00282,0,0,36.4805,0,61.5101,0,0.0197414,0,12.69
1.00282,0,0,37.486,0,63.2055,0,0.0197352,0,12.8
1.00282,0,0,38.4912,0,64.9004,0,0.0197289,0,12.92
1.00282,0,0,39.4959,0,66.5945,0,0.0197224,0,13.02
1.00282,0,0,40.5003,0,68.288,0,0.0199042,0,13.13
1.00282,0,0,41.413,0,69.9808,0,0.0198973,0,13.24
1.00282,0,0,42.4166,0,71.6729,0,0.0198903,0,13.35
1.00282,0,0,43.511,0,73.3643,0,0.019883,0,13.46
1.00282,0,0,44.4225,0,74.9013,0,0.0198763,0,13.56
1.00282,0,0,45.4248,0,76.7449,0,0.0200634,0,13.68
1.00282,0,0,46.5177,0,78.434,0,0.0200556,0,13.79
1.00282,0,0,47.428,0,79.9689,0,0.0200483,0,13.89
1.00282,0,0,48.4289,0,81.6565,0,0.0200402,0,14
1.00282,0,0,49.4293,0,83.4966,0,0.0200312,0,14.12
1.00282,0,0,50.4292,0,85.0292,0,0.0200235,0,14.22
1.00282,0,0,51.4286,0,86.7143,0,0.020258,0,14.33
1.00282,0,0,52.4275,0,88.3986,0,0.0202491,0,14.44
1.00282,0,0,53.4259,0,90.0819,0,0.02024,0,14.55
1.00282,0,0,54.4237,0,91.7643,0,0.0202308,0,14.66
1.00282,0,0,55.421,0,93.4459,0,0.0202214,0,14.77
1.00282,0,0,56.4177,0,95.1264,0,0.0204778,0,14.88
1.00282,0,0,57.4138,0,96.8061,0,0.020468,0,14.99
1.00282,0,0,58.3189,0,98.3322,0,0.0204589,0,15.09
1.00282,0,0,59.4044,0,100.162,0,0.0204478,0,15.21
1.00282,0,0,60.3085,0,101.687,0,0.020435,0,15.31
1.00282,0,0,61.3023,0,103.362,0,0.020447,0,15.42
1.00282,0,0,62.3858,0,105.189,0,0.0207079,0,15.54
1.00282,0,0,63.2882,0,106.711,0,0.0207068,0,15.64
1.00282,0,0,64.2802,0,108.384,0,0.0207035,0,15.75
1.00282,0,0,65.2715,0,110.207,0,0.0206931,0,15.87
1.00282,0,0,66.2622,0,111.725,0,0.020687,0,15.97
1.00282,0,0,67.2523,0,113.395,0,0.0209969,0,16.08
1.00282,0,0,68.2417,0,115.063,0,0.0209863,0,16.19
1.00282,0,0,69.2304,0,116.73,0,0.0210295,0,16.3
1.00282,0,0,70.2184,0,118.396,0,0.021027,0,16.41
1.00282,0,0,71.116,0,120.061,0,0.0210238,0,16.52
1.00282,0,0,72.1026,0,121.724,0,0.0210169,0,16.63
1.00282,0,0,73.1782,0,123.386,0,0.0213475,0,16.74
1.00282,0,0,74.0738,0,124.897,0,0.0213388,0,16.84
1.00282,0,0,75.1478,0,126.707,0,0.0213283,0,16.96
1.00282,0,0,76.0421,0,128.215,0,0.0213194,0,17.06
1.00282,0,0,77.025,0,130.023,0,0.0212499,0,17.18
1.00282,0,0,78.0965,0,131.679,0,0.0215972,0,17.29
1.00282,0,0,78.9888,0,133.184,0,0.0215723,0,17.39
1.00282,0,0,79.9694,0,134.837,0,0.0215465,0,17.5
1.00282,0,0,80.9493,0,136.49,0,0.0215192,0,17.61
1.00282,0,0,81.9284,0,138.14,0,0.0215009,0,17.72
1.00282,0,0,82.9067,0,139.79,0,0.0214648,0,17.83
1.00282,0,0,83.8842,0,141.438,0,0.0218008,0,17.94
1.00282,0,0,84.8609,0,143.085,0,0.0218525,0,18.05
1.00282,0,0,85.8367,0,144.73,0,0.0218392,0,18.16
1.00282,0,0,86.8117,0,146.374,0,0.0217693,0,18.27
1.00282,0,0,87.7858,0,148.017,0,0.0217404,0,18.38
1.00282,0,0,88.7591,0,149.658,0,0.0220918,0,18.49
1.00282,0,0,89.6431,0,151.297,0,0.0220752,0,18.6
1.00282,0,0,90.6147,0,152.935,0,0.0221197,0,18.71
1.00282,0,0,91.5854,0,154.423,0,0.0222185,0,18.81
1.00282,0,0,92.6433,0,156.207,0,0.022251,0,18.93
1.00282,0,0,93.6122,0,157.84,0,0.0226462,0,19.04
1.00282,0,0,94.4921,0,159.324,0,0.0226631,0,19.15
1.00282,0,0,95.4592,0,160.955,0,0.0226505,0,19.25
1.00282,0,0,96.4254,0,162.584,0,0.0225849,0,19.37
1.00282,0,0,97.3906,0,164.211,0,0.022571,0,19.47
1.00282,0,0,98.3548,0,165.837,0,0.0225414,0,19.58
1.00282,0,0,99.3182,0,167.461,0,0.0229253,0,19.69
1.00282,0,0,100.28,0,169.084,0,0.0228019,0,19.8
1.00282,0,0,101.242,0,170.705,0,0.0228182,0,19.92
1.00282,0,0,102.115,0,172.324,0,0.0228116,0,20.02
1.00282,0,0,103.162,0,173.942,0,0.0227948,0,20.13
1.00282,0,0,104.12,0,175.558,0,0.0232015,0,20.24
1.00282,0,0,104.991,0,177.026,0,0.0231395,0,20.35
1.00282,0,0,105.947,0,178.785,0,0.0231165,0,20.46
1.00282,0,0,106.902,0,180.396,0,0.0230973,0,20.57
1.00282,0,0,107.944,0,182.005,0,0.023078,0,20.68
1.00282,0,0,108.897,0,183.612,0,0.0230585,0,20.79
1.00282,0,0,109.763,0,185.072,0,0.0234998,0,20.9
1.00282,0,0,110.714,0,186.676,0,0.0234796,0,21
1.00282,0,0,111.664,0,188.278,0,0.02354,0,21.11
1.00282,0,0,112.613,0,189.879,0,0.0235395,0,21.22
1.00282,0,0,113.561,0,191.622,0,0.0235768,0,21.34
1.00282,0,0,114.508,0,193.074,0,0.0240572,0,21.44
1.00282,0,0,115.454,0,194.669,0,0.0241034,0,21.55
1.00282,0,0,116.399,0,196.262,0,0.0240956,0,21.67
1.00282,0,0,117.343,0,197.853,0,0.024133,0,21.77
1.00282,0,0,118.2,0,199.442,0,0.0241175,0,21.88
1.00282,0,0,119.141,0,201.03,0,0.0241469,0,21.99
1.00282,0,0,120.082,0,202.615,0,0.0250351,0,22.1
1.00282,0,0,121.021,0,204.055,0,0.0254158,0,22.21
1.00282,0,0,121.959,0,205.637,0,0.0254537,0,22.31
1.00282,0,0,122.981,0,207.36,0,0.0254947,0,22.43
1.00282,0,0,123.917,0,208.938,0,0.025634,0,22.54
1.00282,0,0,124.767,0,210.371,0,0.0262213,0,22.64
1.00282,0,0,125.7,0,211.945,0,0.0262701,0,22.75
1.00282,0,0,126.633,0,213.517,0,0.0262718,0,22.86
1.00282,0,0,127.564,0,215.087,0,0.0262736,0,22.97
1.00282,0,0,128.494,0,216.655,0,0.0264527,0,23.08
1.00282,0,0,129.422,0,218.22,0,0.0265096,0,23.19
1.00282,0,0,130.35,0,219.784,0,0.0270026,0,23.3
1.00282,0,0,131.276,0,221.346,0,0.0270079,0,23.41
1.00282,0,0,132.117,0,222.906,0,0.0270132,0,23.52
1.00282,0,0,133.041,0,224.464,0,0.0270187,0,23.63
1.00282,0,0,134.048,0,226.019,0,0.0270246,0,23.74
1.00282,0,0,134.885,0,227.573,0,0.0275651,0,23.85
1.00282,0,0,135.805,0,229.124,0,0.0275742,0,23.96
1.00282,0,0,136.724,0,230.673,0,0.0275802,0,24.07
1.00282,0,0,137.642,0,232.08,0,0.0275858,0,24.17
1.00282,0,0,138.642,0,233.765,0,0.0275925,0,24.29
1.00282,0,0,139.474,0,235.168,0,0.0275982,0,24.4
1.00282,0,0,140.387,0,236.709,0,0.0281554,0,24.5
1.00282,0,0,141.3,0,238.387,0,0.0281624,0,24.62
1.00282,0,0,142.211,0,239.784,0,0.0281683,0,24.72
1.00282,0,0,143.121,0,241.318,0,0.0282335,0,24.83
1.00282,0,0,144.03,0,242.85,0,0.0282408,0,24.94
1.00282,0,0,144.937,0,244.38,0,0.0287548,0,25.05
1.00282,0,0,145.843,0,245.908,0,0.028766,0,25.17
1.00282,0,0,146.748,0,247.433,0,0.0288597,0,25.27
1.00282,0,0,147.651,0,248.956,0,0.0289254,0,25.38
1.00282,0,0,148.553,0,250.477,0,0.02894,0,25.49
1.00282,0,0,149.372,0,251.857,0,0.0290005,0,25.6
1.00282,0,0,150.271,0,253.374,0,0.029561,0,25.71
1.00282,0,0,151.169,0,254.888,0,0.0295814,0,25.81
1.00282,0,0,152.066,0,256.537,0,0.0296378,0,25.93
1.00282,0,0,153.042,0,258.046,0,0.0296728,0,26.04
1.00282,0,0,153.855,0,259.416,0,0.0296976,0,26.14
1.00282,0,0,154.747,0,260.921,0,0.0303193,0,26.25
1.00282,0,0,155.639,0,262.424,0,0.0303357,0,26.36
1.00282,0,0,156.528,3.19E-07,263.924,0,0.0303545,0,26.47
1.00282,0,0,157.417,0.000264567,265.422,0,0.085576,0,26.58
1.00322,0,0,158.303,0.00150058,266.917,0,0.386769,-0.0137603,26.69
1.00704,0,0,159.189,0.00415414,268.408,0,1.05646,-0.0585546,26.8
1.01655,0,0,160.073,0.0094165,269.891,0,2.40364,-0.137852,26.91
1.03759,0,0,160.958,0.0187772,271.351,0,4.84581,-0.249952,27.02
1.07007,0,0,161.847,0.032207,272.762,0,8.43399,-0.35372,27.13
1.11952,0,0,162.747,0.0499934,274.09,0,13.2408,-0.472685,27.24
1.16686,0,0,163.583,0.0680133,275.211,0,18.7754,-0.428719,27.35
1.2107,0,0,164.528,0.0846035,276.454,0,23.4713,-0.382081,27.46
1.25375,0,0,165.507,0.100659,277.802,0,28.0705,-0.422399,27.57
1.30507,0,0,166.608,0.121291,278.919,0,33.468,-0.52534,27.68
1.3702,0,0,167.664,0.14507,279.828,0,40.2054,-0.669246,27.79
1.46234,0,0,168.665,0.171961,280.383,0,47.5674,-1.11166,27.89
1.64506,0,0,169.775,0.207018,280.598,0,56.6682,-2.21659,28
1.9931,0,0,170.905,0.243432,280.627,0,66.2613,-4.28797,28.12
2.59534,0,0,172.073,0.279599,280.664,0,73.5472,-6.76372,28.22
3.54626,0,0,173.273,0.316426,280.713,0,81.0037,-10.3679,28.33
4.93394,0,0,174.502,0.353146,280.518,0,88.8256,-13.6733,28.44
6.66326,0,0,175.731,0.353146,283.712,0,85.5331,-17.8675,28.55
8.67687,0,0,176.931,0.353146,286.889,0,81.9239,-22.3526,28.66
11.3506,0,0,178.101,0.353146,289.906,0,78.4856,-26.622,28.77
14.4877,0,0,179.243,0.353146,292.801,0,75.1131,-30.7878,28.88
18.4226,-3.19E-05,6.28318,180.269,0.353547,295.396,-0.00500878,71.9341,-34.7068,28.99
22.0609,-0.00100495,6.28312,179.794,0.379082,293.453,-0.0932545,76.0992,-37.901,29.1
26.3803,-0.00305669,6.28297,179.255,0.418222,290.628,-0.269238,83.0985,-41.0504,29.21
31.0801,-0.00562164,6.28275,178.75,0.459526,287.398,-0.518303,90.9556,-44.8194,29.32
36.2205,-0.00842097,6.28248,178.271,0.499285,284.189,-0.826756,98.161,-48.9955,29.43
42.3302,-0.0114164,6.28241,177.772,0.514009,283.102,-1.17388,99.0128,-52.8762,29.54
47.8371,-0.0137934,6.28248,177.383,0.519253,283.421,-1.49616,96.1365,-56.9145,29.64
54.3677,-0.0163585,6.28248,176.975,0.530474,283.239,-1.84754,94.6016,-61.4069,29.75
61.3887,-0.0187508,6.2826,176.593,0.53542,283.588,-2.18899,91.5657,-65.8815,29.86
68.9138,-0.0208852,6.28269,176.238,0.540498,284.113,-2.49503,88.0127,-70.4729,29.97
76.9212,-0.0222067,6.28269,175.904,0.548589,284.208,-2.71415,85.8918,-74.6957,30.08
85.3822,-0.022944,6.28266,175.598,0.555548,284.385,-2.86033,83.6095,-78.7433,30.19
94.2776,-0.0233815,6.28253,175.321,0.561666,284.613,-2.94769,81.2738,-82.6092,30.3
103.587,-0.0236926,6.28229,175.074,0.566861,284.897,-2.98728,78.6432,-86.6178,30.42
112.393,-0.0239467,6.28197,174.858,0.571094,285.241,-2.98185,76.3741,-89.7915,30.52
122.436,-0.0242129,6.28156,174.691,0.571745,285.794,-2.94057,73.2284,-93.0719,30.63
132.831,-0.0244912,6.28113,174.544,0.569353,286.588,-2.86721,69.2157,-96.1576,30.74
143.55,-0.0248318,6.28063,174.435,0.565068,287.35,-2.76638,65.0433,-98.9368,30.85
154.56,-0.0252472,6.28005,174.366,0.559319,288.218,-2.65459,61.1705,-101.2,30.95
165.826,-0.0257444,6.27942,174.331,0.552338,289.156,-2.49879,56.5167,-103.563,31.07
177.311,-0.0261371,6.27874,174.3,0.54415,289.922,-2.32225,52.4465,-105.374,31.18
188.98,-0.0262814,6.27793,174.284,0.536373,290.615,-2.11443,48.6256,-106.863,31.29
200.798,-0.0263088,6.27714,174.28,0.53087,291.108,-1.90388,45.8448,-107.968,31.39
212.734,-0.0263043,6.27622,174.283,0.524669,291.593,-1.65515,43.0563,-108.928,31.5
224.763,-0.026362,6.27518,174.294,0.520215,291.999,-1.37003,40.7683,-109.749,31.62
236.865,-0.0265066,6.27404,174.307,0.517374,292.242,-1.12626,39.5061,-110.263,31.72
249.022,-0.0267309,6.27287,174.324,0.514472,292.494,-0.856816,38.2265,-110.717,31.83
261.223,-0.0270519,6.27167,174.344,0.512036,292.72,-0.591117,37.1499,-111.078,31.94
273.459,-0.0274849,6.27042,174.365,0.511303,292.877,-0.334011,36.628,-111.36,32.05
284.607,-0.0279619,6.26926,174.387,0.511713,292.974,-0.0899988,36.5645,-111.583,32.16
296.892,-0.0285562,6.26803,174.405,0.512044,293.072,0.136537,36.4828,-111.798,32.27
309.2,-0.0292178,6.26685,174.425,0.512385,293.166,0.341693,36.4106,-112.006,32.38
322.653,-0.0300037,6.26562,174.443,0.512793,293.256,0.522255,36.3588,-112.209,32.49
333.884,-0.0306968,6.26467,174.457,0.51327,293.339,0.67572,36.3357,-112.406,32.6
346.258,-0.0314844,6.2637,174.472,0.513707,293.421,0.800308,36.3137,-112.6,32.71
358.654,-0.0322838,6.26283,174.486,0.514195,293.492,0.894964,36.2951,-112.793,32.82
371.07,-0.0330803,6.26205,174.498,0.514692,293.575,0.959343,36.2792,-112.983,32.93
383.508,-0.0339298,6.26131,174.509,0.515243,293.648,0.993777,36.2658,-113.171,33.04
395.966,-0.0346106,6.26078,174.517,0.515711,293.713,0.999893,36.2556,-113.341,33.14
408.445,-0.0353199,6.2603,174.525,0.516234,293.781,0.980315,36.2464,-113.526,33.25
420.944,-0.0359783,6.25991,174.531,0.516765,293.847,0.929837,36.2385,-113.727,33.37
433.463,-0.0365776,6.2596,174.536,0.517304,293.911,0.86679,36.2335,-113.893,33.47
444.861,-0.0371112,6.25938,174.539,0.517852,293.972,0.778094,36.2295,-114.074,33.58
458.561,-0.0375745,6.25923,174.541,0.518408,294.03,0.672134,36.2268,-114.255,33.69
471.14,-0.0379646,6.25913,174.541,0.518971,294.086,0.552196,36.2254,-114.434,33.8
483.738,-0.0382805,6.25909,174.54,0.519541,294.139,0.421682,36.2252,-114.612,33.91
495.208,-0.0385039,6.25909,174.538,0.520118,294.19,0.284026,36.226,-114.79,34.02
507.844,-0.0386813,6.25911,174.534,0.5207,294.238,0.14262,36.2277,-114.967,34.13
520.499,-0.0387974,6.25916,174.528,0.521288,294.284,0.000739746,36.2302,-115.144,34.24
533.174,-0.0388368,6.2592,174.522,0.521827,294.323,-0.126043,36.2331,-115.304,34.34
545.868,-0.0388259,6.25924,174.514,0.522423,294.368,-0.272291,36.2374,-115.495,34.46
558.581,-0.0387647,6.25927,174.504,0.523022,294.402,-0.398008,36.2418,-115.669,34.57
571.313,-0.0386609,6.25927,174.493,0.523624,294.441,-0.51342,36.2466,-115.843,34.68
584.065,-0.0385227,6.25924,174.48,0.524229,294.471,-0.607798,36.2513,-116.001,34.79
596.835,-0.0383584,6.25917,174.466,0.524835,294.502,-0.698598,36.2568,-116.174,34.89
609.625,-0.0381768,6.25906,174.45,0.525442,294.53,-0.774642,36.2629,-116.362,35.01
622.433,-0.0379863,6.2589,174.433,0.52605,294.555,-0.835156,36.2682,-116.518,35.12
635.26,-0.0377951,6.25869,174.414,0.526658,294.578,-0.879749,36.2739,-116.689,35.22
648.106,-0.0376108,6.25842,174.394,0.527267,294.599,-0.908402,36.2796,-116.86,35.33
659.801,-0.0374409,6.25809,174.373,0.527874,294.618,-0.921444,36.2852,-117.029,35.44
673.855,-0.0372916,6.25771,174.349,0.528481,294.634,-0.919523,36.2906,-117.198,35.55
685.583,-0.0371787,6.25732,174.325,0.529087,294.647,-0.903578,36.2957,-117.367,35.66
698.502,-0.0370839,6.25685,174.301,0.529692,294.659,-0.874798,36.3006,-117.534,35.77
711.439,-0.0370239,6.25632,174.274,0.530241,294.667,-0.834582,36.3051,-117.7,35.88
725.573,-0.0370014,6.2557,174.242,0.530898,294.674,-0.784495,36.3093,-117.866,35.99
737.367,-0.0370188,6.25514,174.214,0.531444,294.678,-0.726227,36.313,-118.03,36.1
750.359,-0.0370768,6.2545,174.183,0.532042,294.68,-0.667643,36.3162,-118.193,36.21
763.368,-0.0371756,6.25384,174.149,0.532639,294.679,-0.592256,36.319,-118.355,36.32
776.395,-0.0373145,6.25315,174.115,0.533321,294.676,-0.520157,36.3238,-118.516,36.43
789.441,-0.0375251,6.25237,174.078,0.535385,294.623,-0.453617,36.7053,-118.675,36.54
802.506,-0.0377828,6.25157,174.037,0.538141,294.532,-0.380749,37.3232,-118.855,36.65
815.593,-0.0380743,6.25075,173.991,0.540913,294.439,-0.309832,37.8841,-119.081,36.75
828.707,-0.0384001,6.24993,173.94,0.543809,294.338,-0.242392,38.4786,-119.374,36.87
841.854,-0.038765,6.24909,173.883,0.547201,294.215,-0.179752,39.0586,-119.655,36.97
855.036,-0.0391579,6.24826,173.821,0.550784,294.078,-0.123021,39.7095,-120.004,37.08
868.26,-0.0395715,6.24743,173.752,0.554411,293.936,-0.0731372,40.315,-120.398,37.19
880.321,-0.0400017,6.24662,173.677,0.558085,293.786,-0.0308193,40.881,-120.836,37.3
893.637,-0.0403973,6.2459,173.596,0.561387,293.639,0.00343474,41.349,-121.304,37.41
907.005,-0.0407788,6.24526,173.517,0.562335,293.591,0.0292691,41.0522,-121.805,37.52
920.428,-0.0411655,6.24458,173.421,0.563387,293.535,0.0465449,40.7737,-122.297,37.63
933.904,-0.0415832,6.24399,173.33,0.564385,293.475,0.055418,40.5037,-122.764,37.74
947.431,-0.0419239,6.24347,173.245,0.565265,293.414,0.0561922,40.2462,-123.207,37.85
961.005,-0.0422876,6.24293,173.149,0.566199,293.343,0.0493151,39.9998,-123.628,37.96
974.624,-0.0426367,6.24242,173.052,0.56718,293.258,0.0353615,39.7638,-124.027,38.07
988.286,-0.0429686,6.24193,172.952,0.567955,293.184,0.0150157,39.5346,-124.406,38.18
1001.99,-0.0432816,6.24146,172.849,0.568771,293.098,-0.00837772,39.3324,-124.733,38.28
1015.73,-0.0435748,6.24102,172.745,0.569553,293.007,-0.0387188,39.1186,-125.073,38.4
1029.51,-0.0438473,6.24059,172.64,0.570301,292.912,-0.0730249,38.9131,-125.395,38.5
1043.32,-0.044099,6.24018,172.532,0.571016,292.812,-0.113893,38.6978,-125.725,38.62
1057.16,-0.0443301,6.23977,172.423,0.571697,292.709,-0.149852,38.5251,-125.984,38.72
1071.04,-0.0445411,6.23938,172.312,0.572345,292.602,-0.190531,38.3417,-126.253,38.83
1084.94,-0.0447332,6.23899,172.199,0.572959,292.492,-0.231527,38.1647,-126.505,38.94
1098.87,-0.0449078,6.23861,172.085,0.573539,292.378,-0.271997,37.9937,-126.741,39.05
1112.83,-0.0450664,6.23822,171.97,0.574086,292.261,-0.311162,37.8284,-126.961,39.16
1125.53,-0.0451985,6.23787,171.854,0.5746,292.142,-0.348311,37.6685,-127.166,39.27
1139.53,-0.0453323,6.23747,171.747,0.575079,292.019,-0.38282,37.5135,-127.357,39.38
1153.55,-0.0454563,6.23706,171.617,0.575525,291.894,-0.413975,37.3632,-127.533,39.49
1167.59,-0.0453398,6.23666,171.508,0.575902,291.767,-0.423961,37.2174,-127.695,39.6
1181.64,-0.0446673,6.23627,171.388,0.576317,291.637,-0.409872,37.0755,-127.845,39.71
1195.71,-0.0435522,6.23587,171.266,0.57666,291.506,-0.366816,36.9375,-127.981,39.82
1209.79,-0.0419518,6.23544,171.144,0.576942,291.372,-0.292069,36.8029,-128.104,39.93
1223.89,-0.0397727,6.23493,171.009,0.577241,291.237,-0.186312,36.6714,-128.215,40.04
1238,-0.0377659,6.23446,170.897,0.577458,291.112,-0.0667316,36.5543,-128.305,40.15
1252.12,-0.0354426,6.2339,170.772,0.577664,290.974,0.08817,36.4282,-128.392,40.25
1266.25,-0.033085,6.23329,170.647,0.577696,290.838,0.279298,36.2552,-128.472,40.37
1280.38,-0.0307553,6.23263,170.522,0.57755,290.708,0.451956,36.0719,-128.527,40.47
1294.52,-0.0284869,6.23195,170.397,0.577375,290.576,0.651534,35.8811,-128.572,40.58
1308.67,-0.0262926,6.23125,170.272,0.577161,290.443,0.856865,35.6967,-128.6,40.69
1322.81,-0.0241754,6.23054,170.147,0.576909,290.309,1.0636,35.5188,-128.612,40.8
1335.67,-0.0223156,6.22984,170.022,0.576621,290.174,1.26759,35.3471,-128.608,40.91
1349.82,-0.0203356,6.22923,169.909,0.576297,290.039,1.465,35.1813,-128.589,41.02
1363.96,-0.0184161,6.22855,169.774,0.575938,289.904,1.6523,35.0213,-128.556,41.13
1379.39,-0.0163795,6.22797,169.65,0.575544,289.769,1.82642,34.8668,-128.508,41.24
1392.24,-0.014718,6.2275,169.538,0.575157,289.634,1.98471,34.7175,-128.447,41.35
1406.36,-0.0129166,6.22706,169.416,0.574698,289.511,2.11302,34.5733,-128.372,41.46
1420.48,-0.0111313,6.2267,169.294,0.574205,289.377,2.23546,34.4464,-128.293,41.57
1434.58,-0.00935011,6.22644,169.173,0.573629,289.231,2.34532,34.2992,-128.185,41.68
1448.68,-0.0073983,6.22625,169.042,0.573066,289.099,2.42355,34.1689,-128.072,41.79
1462.76,-0.00575492,6.22619,168.934,0.572526,288.979,2.47585,34.0542,-127.96,41.89
1476.83,-0.00458944,6.22618,168.815,0.571899,288.848,2.46662,33.933,-127.825,42
1490.88,-0.0055045,6.22618,168.698,0.571232,288.708,2.3504,33.8087,-127.666,42.12
1504.92,-0.007594,6.22629,168.581,0.570524,288.592,2.18796,33.7084,-127.523,42.22
1518.93,-0.0102052,6.22657,168.466,0.569779,288.466,1.94701,33.6006,-127.355,42.33
1532.93,-0.012983,6.22704,168.352,0.569,288.343,1.64865,33.4946,-127.178,42.44
1546.91,-0.0157369,6.22768,168.239,0.568191,288.221,1.30185,33.3905,-126.99,42.55
1560.87,-0.018366,6.22848,168.128,0.567353,288.101,0.87954,33.2789,-126.774,42.67
1573.54,-0.0206046,6.2294,168.018,0.566489,287.983,0.501569,33.1877,-126.585,42.77
1587.45,-0.0228791,6.23042,167.91,0.5656,287.867,0.0679832,33.0895,-126.368,42.88
1602.6,-0.0251296,6.23151,167.803,0.564685,287.752,-0.374731,32.9937,-126.141,42.99
1615.2,-0.026826,6.23252,167.707,0.563832,287.638,-0.8143,32.9004,-125.906,43.1
1629.04,-0.0270069,6.23371,167.604,0.562786,287.527,-1.15001,32.8122,-125.663,43.21
1642.85,-0.0244557,6.23495,167.501,0.561897,287.417,-1.39084,32.7329,-125.413,43.32
1656.63,-0.0202981,6.2361,167.401,0.560795,287.309,-1.53881,32.6596,-125.155,43.43
1671.64,-0.0147954,6.23712,167.293,0.559746,287.204,-1.59329,32.5896,-124.889,43.54
1684.11,-0.0098135,6.23776,167.205,0.558757,287.112,-1.56183,32.5273,-124.641,43.64
1697.81,-0.0041521,6.23822,167.11,0.557634,287.013,-1.4434,32.4594,-124.335,43.76
1711.47,0.00151225,6.23841,167.016,0.557892,286.881,-1.24327,32.7106,-124.089,43.86
1725.1,0.00707171,6.23837,166.922,0.559421,286.698,-0.966782,33.3965,-123.811,43.97
1738.71,0.0124557,6.23812,166.826,0.561073,286.51,-0.622229,34.0647,-123.577,44.08
1752.29,0.0166414,6.23762,166.727,0.562764,286.323,-0.276312,34.6892,-123.388,44.19
1765.85,0.0191415,6.23692,166.626,0.564504,286.134,0.0684103,35.2758,-123.24,44.3
1778.17,0.0204877,6.2362,166.523,0.566286,285.943,0.406335,35.827,-123.131,44.41
1791.71,0.0213537,6.23528,166.418,0.568104,285.751,0.728669,36.3447,-123.059,44.52
1805.24,0.0215666,6.23445,166.309,0.569952,285.557,1.0179,36.8306,-123.02,44.63
1820.01,0.0208368,6.23363,166.198,0.571825,285.361,1.24765,37.2868,-123.013,44.74
1832.31,0.0191328,6.23293,166.095,0.573718,285.163,1.40627,37.7155,-123.036,44.85
1845.84,0.0166046,6.23226,165.967,0.575626,284.963,1.4994,38.1171,-123.086,44.96
1859.39,0.0137424,6.23174,165.859,0.577367,284.779,1.52882,38.4918,-123.161,45.07
1872.94,0.0107507,6.23139,165.736,0.579463,284.557,1.49738,38.8404,-123.26,45.18
1886.5,0.00775026,6.2312,165.6,0.581389,284.352,1.40913,39.1639,-123.379,45.29
1900.08,0.00481405,6.23121,165.483,0.583157,284.163,1.2837,39.44,-123.505,45.39
1913.68,0.00198588,6.23137,165.352,0.585117,283.952,1.10108,39.7267,-123.66,45.5
1927.29,-0.000707955,6.23168,165.217,0.587078,283.738,0.877554,39.9905,-123.831,45.61
1940.92,-0.00324853,6.23212,165.08,0.587484,283.566,0.619733,39.9253,-123.996,45.72
1954.57,-0.00561357,6.2327,164.944,0.583897,283.563,0.336232,38.6534,-124.169,45.83
1968.24,-0.00782032,6.23338,164.813,0.579855,283.574,0.0352341,37.2946,-124.271,45.94
1980.67,-0.00987941,6.23414,164.687,0.575586,283.582,-0.276629,35.9828,-124.277,46.05
1994.33,-0.0116348,6.23488,164.567,0.571181,283.585,-0.593343,34.7397,-124.189,46.16
2007.99,-0.0134489,6.23579,164.454,0.566641,283.585,-0.908649,33.5613,-124.012,46.27
2021.61,-0.0151567,6.23655,164.347,0.561971,283.584,-1.21718,32.4446,-123.753,46.38
2036.45,-0.0169181,6.23744,164.246,0.557178,283.585,-1.51294,31.3868,-123.414,46.49
2048.77,-0.0183086,6.23813,164.161,0.552719,283.587,-1.79049,30.3853,-123,46.6
2062.27,-0.0197667,6.23883,164.075,0.547708,283.592,-2.04495,29.4375,-122.515,46.71
2075.72,-0.0211652,6.23944,163.996,0.54229,283.599,-2.27198,28.5774,-121.966,46.82
2089.11,-0.0225401,6.2399,163.917,0.539186,283.565,-2.46838,28.2145,-121.375,46.93
2102.43,-0.0239205,6.24018,163.856,0.538013,283.482,-2.6192,28.4704,-120.791,47.03
2115.68,-0.0253302,6.24027,163.79,0.53894,283.341,-2.75396,29.2751,-120.177,47.14
2128.86,-0.0268147,6.2401,163.724,0.543567,283.085,-2.85685,31.0905,-119.607,47.25
2141.99,-0.0283561,6.23974,163.651,0.549427,282.771,-2.93009,33.2267,-119.129,47.36
2155.07,-0.0299491,6.23923,163.571,0.555393,282.444,-2.97649,35.2191,-118.797,47.47
2168.13,-0.0316051,6.23858,163.483,0.561529,282.104,-2.99911,37.1018,-118.6,47.58
2181.17,-0.033333,6.2378,163.387,0.567795,281.752,-3.00082,38.8767,-118.533,47.69
2194.21,-0.0350958,6.23698,163.283,0.572167,281.461,-2.98449,40.0471,-118.569,47.8
2207.26,-0.036928,6.23605,163.174,0.576291,281.191,-2.94897,41.0524,-118.722,47.92
2219.14,-0.0386408,6.23515,163.069,0.579794,280.933,-2.90726,41.7184,-118.892,48.02
2232.23,-0.0405207,6.23419,162.938,0.580545,280.786,-2.85034,41.6633,-119.123,48.13
2245.34,-0.0424001,6.23328,162.818,0.578822,280.751,-2.78303,40.8483,-119.366,48.24
2258.48,-0.0443384,6.23234,162.711,0.576588,280.732,-2.70672,39.9332,-119.559,48.35
2271.64,-0.0463428,6.23136,162.595,0.574059,280.716,-2.62313,38.9974,-119.688,48.46
2284.81,-0.048416,6.23034,162.482,0.571425,280.697,-2.5341,38.1116,-119.75,48.57
2297.98,-0.050547,6.22929,162.373,0.568865,280.677,-2.44119,37.2482,-119.748,48.68
2311.15,-0.0527084,6.22813,162.257,0.565366,280.666,-2.3261,36.346,-119.685,48.79
2324.31,-0.0531884,6.22722,162.165,0.562343,280.655,-2.16494,35.5633,-119.574,48.89
2337.46,-0.0525921,6.22621,162.067,0.558908,280.644,-1.9443,34.7427,-119.394,49
2350.58,-0.0513682,6.22514,161.975,0.555365,280.634,-1.68632,33.9627,-119.155,49.11
2363.67,-0.0498537,6.22398,161.888,0.551723,280.626,-1.39704,33.2217,-118.861,49.22
2376.72,-0.0482321,6.22274,161.806,0.547989,280.621,-1.08279,32.518,-118.515,49.33
2389.73,-0.0465763,6.22143,161.729,0.544168,280.619,-0.74862,31.8504,-118.118,49.44
2402.7,-0.044834,6.22007,161.659,0.540268,280.622,-0.39647,31.2173,-117.675,49.55
2414.44,-0.043187,6.21868,161.594,0.536292,280.629,-0.0346726,30.6171,-117.186,49.66
2427.31,-0.0413785,6.21727,161.535,0.532247,280.642,0.329893,30.0487,-116.654,49.77
2440.11,-0.0396165,6.21587,161.483,0.528138,280.66,0.690404,29.511,-116.082,49.88
2454.01,-0.0377805,6.21449,161.437,0.524004,280.684,1.04002,29.0089,-115.472,49.99
2465.52,-0.0363346,6.21328,161.401,0.52034,280.711,1.37249,28.5763,-114.828,50.1
2478.12,-0.03484,6.21199,161.367,0.516853,280.73,1.68236,28.3244,-114.163,50.21
2490.64,-0.0334522,6.21072,161.338,0.515099,280.702,1.96565,28.5948,-113.466,50.32
2503.09,-0.0321201,6.20957,161.313,0.513212,280.687,2.19727,28.7987,-112.842,50.42
2515.46,-0.0307179,6.20845,161.289,0.511092,280.679,2.43901,29.0116,-112.109,50.54
2527.76,-0.0295752,6.20765,161.273,0.509281,280.681,2.60814,29.166,-111.507,50.64
2539.99,-0.028328,6.20691,161.26,0.507249,280.692,2.75874,29.3156,-110.856,50.75
2552.14,-0.027073,6.20632,161.25,0.505181,280.711,2.87146,29.4583,-110.154,50.87
2564.23,-0.0257923,6.20589,161.244,0.503083,280.739,2.94635,29.5636,-109.577,50.97
2576.24,-0.0244701,6.20562,161.243,0.501037,280.774,2.98423,29.6783,-108.949,51.08
2588.19,-0.0230316,6.20546,161.244,0.500465,280.777,2.99411,30.1487,-108.339,51.19
2598.99,-0.0204483,6.20548,161.248,0.500955,280.749,3.02158,30.9253,-107.747,51.3
2611.89,-0.0161073,6.20568,161.252,0.502764,280.687,3.08215,31.9764,-107.214,51.41
2622.59,-0.0107843,6.20598,161.253,0.505793,280.582,3.18256,33.327,-106.739,51.52
2634.31,-0.00406405,6.20637,161.252,0.510475,280.427,3.32292,34.968,-106.369,51.63
2647.06,0.00371854,6.20686,161.243,0.519559,280.113,3.49719,37.6433,-106.121,51.74
2657.66,0.00911434,6.20727,161.225,0.531074,279.665,3.63682,40.9114,-106.027,51.84
2669.33,0.0137737,6.20773,161.189,0.544165,279.114,3.79573,44.7252,-106.165,51.96
2681.03,0.0176202,6.20826,161.134,0.557738,278.51,3.91736,47.7659,-106.501,52.06
2692.78,0.0209834,6.2089,161.058,0.572883,277.799,4.04806,51.2139,-107.151,52.18
2704.6,0.0240594,6.20966,160.957,0.585729,277.167,4.14285,54.1742,-107.97,52.29
2716.53,0.0269623,6.21056,160.833,0.600075,276.436,4.23151,56.7068,-108.887,52.39
2728.57,0.0297627,6.2116,160.697,0.614631,275.692,4.30343,59.5594,-110.198,52.51
2740.76,0.032511,6.21281,160.549,0.629355,274.937,4.3581,61.7832,-111.453,52.61
2753.11,0.0352686,6.21417,160.388,0.644196,274.177,4.39589,64.0656,-112.992,52.72
2765.64,0.0380818,6.21572,160.213,0.659144,273.41,4.41762,66.1851,-114.682,52.83
2778.37,0.0408959,6.21744,160.022,0.674186,272.637,4.41662,68.1507,-116.509,52.94
2791.3,0.0434132,6.21932,159.816,0.68931,271.857,4.37473,69.9709,-118.461,53.05
2803.25,0.0455633,6.22119,159.592,0.704503,271.07,4.29736,71.6524,-120.522,53.16
2816.61,0.0479057,6.22344,159.351,0.719754,270.275,4.1903,73.2022,-122.682,53.27
2830.22,0.0505433,6.22612,159.091,0.735056,269.472,4.0592,74.6268,-124.928,53.38
2845.35,0.053098,6.2288,158.812,0.750398,268.659,3.909,75.9325,-127.248,53.49
2858.19,0.055565,6.23142,158.541,0.764371,267.911,3.7597,77.0211,-129.412,53.59
2872.57,0.0583573,6.23448,158.224,0.781132,267.004,3.55761,78.2042,-132.065,53.71
2887.22,0.0609189,6.23772,157.887,0.795036,266.242,3.3545,79.0793,-134.539,53.82
2902.15,0.0634055,6.24113,157.529,0.810259,265.397,3.08165,80.0031,-137.044,53.93
2917.35,0.0661568,6.245,157.115,0.8261,264.496,2.81468,80.6343,-139.557,54.04
2932.82,0.0680853,6.24795,156.752,0.834998,264.06,2.54884,80.0776,-141.833,54.14
2948.58,0.0693708,6.25094,156.334,0.841778,263.79,2.19708,78.6601,-144.501,54.26
2964.59,0.0694653,6.2532,155.902,0.84111,264.044,1.75387,75.0821,-146.801,54.37
2980.84,0.069146,6.25527,155.456,0.838016,264.332,1.36411,71.6048,-148.714,54.47
2997.31,0.068669,6.25723,154.998,0.833353,264.612,0.929936,67.6356,-150.552,54.58
3013.97,0.0682088,6.25918,154.527,0.828281,264.777,0.500682,63.817,-152.115,54.69
3029.25,0.0678057,6.26111,154.047,0.822844,264.826,0.0840616,60.19,-153.409,54.8
3046.18,0.0674866,6.26297,153.558,0.816886,264.786,-0.314028,56.691,-154.455,54.91
3063.21,0.06719,6.26459,153.107,0.810608,264.652,-0.689578,53.3683,-155.265,55.02
3080.32,0.0669093,6.26643,152.562,0.803938,264.443,-1.04018,50.1975,-155.856,55.13
3099.05,0.0665771,6.26798,152.071,0.796885,264.189,-1.36368,47.1709,-156.253,55.24
3114.69,0.0662576,6.26927,151.635,0.789477,263.898,-1.65783,44.2876,-156.471,55.35
3131.9,0.0658488,6.27054,151.165,0.781722,263.573,-1.92061,41.5393,-156.517,55.46
3149.12,0.0653398,6.27165,150.704,0.774379,263.253,-2.13279,38.9188,-156.401,55.57
3166.31,0.0645941,6.27258,150.253,0.765987,262.876,-2.34193,36.6415,-156.162,55.67
3185.02,0.0633778,6.27339,149.772,0.756458,262.443,-2.54107,34.032,-155.718,55.79
3200.57,0.0621932,6.27399,149.381,0.7493,262.042,-2.68086,32.1624,-155.232,55.89
3217.6,0.0607999,6.27466,148.958,0.743101,261.525,-2.80652,30.7602,-154.572,56
3234.56,0.0592708,6.27522,148.544,0.737423,260.985,-2.90926,29.5352,-153.752,56.12
3251.43,0.0576102,6.27562,148.138,0.73169,260.443,-2.96698,28.6,-153.005,56.22
3268.21,0.0558395,6.27587,147.74,0.725931,259.904,-3.00118,27.6411,-152.127,56.33
3284.89,0.0539746,6.27598,147.35,0.72034,259.361,-3.00533,26.8165,-151.191,56.44
3301.46,0.0520111,6.27594,146.968,0.714818,258.822,-2.98063,26.0793,-150.206,56.55
3317.92,0.0499536,6.27578,146.594,0.709495,258.283,-2.92302,25.4106,-149.083,56.67
3332.79,0.0479973,6.27553,146.228,0.70434,257.747,-2.85278,24.9499,-148.112,56.77
3349.03,0.0457331,6.27513,145.902,0.699192,257.218,-2.75507,24.4948,-147.013,56.88
3365.14,0.0433478,6.27456,145.52,0.694041,256.698,-2.63859,24.0873,-145.886,56.99
3381.13,0.0408452,6.27399,145.209,0.689346,256.233,-2.50645,23.7213,-144.733,57.1
3398.43,0.037985,6.27322,144.846,0.683686,255.687,-2.36188,23.3915,-143.556,57.21
3412.72,0.0355013,6.2725,144.55,0.678462,255.198,-2.20818,23.0935,-142.356,57.32
3428.32,0.0326687,6.27166,144.233,0.6732,254.721,-2.04864,22.8234,-141.137,57.43
3443.79,0.0297378,6.27077,143.925,0.668425,254.298,-1.90129,22.6092,-139.898,57.54
3459.11,0.0267456,6.26991,143.626,0.664548,253.818,-1.73971,22.6755,-138.769,57.64
3474.3,0.0237069,6.26908,143.333,0.662519,253.299,-1.58288,23.3036,-137.508,57.75
3489.35,0.0205896,6.26823,143.046,0.660492,252.789,-1.42171,23.967,-136.16,57.87
3504.27,0.017405,6.26738,142.764,0.658509,252.288,-1.29792,24.498,-135.06,57.97
3519.06,0.0141841,6.26657,142.488,0.658105,251.763,-1.17542,25.401,-133.887,58.08
3533.71,0.0109347,6.2658,142.215,0.659098,251.2,-1.07052,26.6778,-132.741,58.19
3546.93,0.00765162,6.26505,141.945,0.659803,250.649,-0.985337,27.8144,-131.655,58.3
3561.36,0.0046522,6.26439,141.677,0.660516,250.105,-0.920942,28.8783,-130.631,58.41
3575.68,0.00134996,6.26369,141.412,0.661256,249.566,-0.878238,29.885,-129.661,58.52
3589.9,-0.00194241,6.26305,141.172,0.662016,249.032,-0.857638,30.8362,-128.743,58.63
3605.3,-0.00550864,6.26239,140.886,0.662792,248.503,-0.859101,31.7346,-127.875,58.74
3618.04,-0.00845061,6.26189,140.65,0.663507,248.027,-0.879173,32.5074,-127.125,58.84
3633.24,-0.0119349,6.26134,140.367,0.664376,247.461,-0.925914,33.382,-126.273,58.96
3645.83,-0.0147934,6.26092,140.134,0.665103,246.995,-0.982765,34.0688,-125.6,59.07
3659.61,-0.0178844,6.26051,139.878,0.665905,246.488,-1.06281,34.7821,-124.834,59.18
3673.3,-0.0209133,6.26013,139.623,0.666704,245.986,-1.15961,35.4528,-124.228,59.28
3686.93,-0.0238716,6.2598,139.37,0.66752,245.489,-1.27125,36.0882,-123.594,59.39
3700.49,-0.0267529,6.25949,139.118,0.668325,244.997,-1.39571,36.6854,-122.99,59.5
3713.98,-0.0295542,6.25921,138.867,0.669106,244.467,-1.54364,37.2912,-122.366,59.62
3727.42,-0.0322753,6.25894,138.617,0.669859,244.03,-1.6747,37.7611,-121.869,59.72
3740.79,-0.0349176,6.25869,138.368,0.670579,243.554,-1.82503,38.2429,-121.347,59.83
3754.11,-0.0374841,6.25844,138.119,0.671265,243.084,-1.97984,38.6897,-120.847,59.94
3767.37,-0.0399789,6.25818,137.871,0.671911,242.618,-2.13714,39.1029,-120.368,60.05
3779.39,-0.0421888,6.25794,137.624,0.672515,242.158,-2.29501,39.4841,-119.907,60.16
3792.55,-0.0445611,6.25765,137.377,0.673073,241.702,-2.45165,39.8348,-119.463,60.27
3805.67,-0.0468781,6.25734,137.154,0.673582,241.251,-2.60538,40.1562,-119.034,60.38
3819.93,-0.0492797,6.25707,136.887,0.672209,240.868,-2.75452,40.0839,-118.608,60.49
3831.77,-0.051196,6.25689,136.667,0.669826,240.55,-2.89685,39.6465,-118.19,60.6
3844.75,-0.0532701,6.25666,136.429,0.666755,240.241,-3.03098,39.1957,-117.746,60.71
3857.68,-0.0553219,6.25639,136.196,0.66408,239.965,-3.145,38.7937,-117.317,60.81
3870.55,-0.05736,6.25607,135.946,0.66073,239.64,-3.27103,38.3209,-116.772,60.93
3883.37,-0.0593919,6.25567,135.722,0.657526,239.348,-3.37556,37.8966,-116.242,61.04
3896.13,-0.0614242,6.25528,135.523,0.654505,239.089,-3.46107,37.5184,-115.686,61.15
3908.83,-0.063463,6.2548,135.308,0.651064,238.811,-3.54435,37.1108,-115.156,61.25
3921.46,-0.0655139,6.25425,135.099,0.647501,238.54,-3.61616,36.712,-114.549,61.36
3934.02,-0.0675995,6.25362,134.896,0.64416,238.269,-3.67643,36.3707,-113.92,61.47
3946.51,-0.0697843,6.25279,134.697,0.642267,237.947,-3.72558,36.4202,-113.267,61.58
3958.93,-0.0720083,6.25185,134.502,0.640624,237.619,-3.76431,36.5561,-112.605,61.69
3970.16,-0.0742661,6.25083,134.311,0.639088,237.293,-3.79319,36.7209,-111.947,61.8
3982.44,-0.0763698,6.2498,134.124,0.638088,236.955,-3.81289,36.9938,-111.296,61.91
3994.65,-0.0787328,6.24855,133.956,0.637422,236.608,-3.82432,37.3607,-110.652,62.02
4006.79,-0.0813483,6.24709,133.757,0.636806,236.265,-3.82834,37.7211,-110.024,62.13
4018.87,-0.0837827,6.24568,133.578,0.636248,235.926,-3.82584,38.0851,-109.411,62.24
4030.87,-0.0860222,6.24434,133.417,0.635711,235.624,-3.81765,38.4262,-108.815,62.35
4042.81,-0.0885237,6.24279,133.243,0.635222,235.294,-3.80466,38.7764,-108.234,62.46
4054.69,-0.091059,6.24117,133.071,0.634745,234.969,-3.78943,39.0864,-107.669,62.57
4066.5,-0.0936246,6.2395,132.901,0.634231,234.651,-3.76975,39.4058,-107.167,62.67
4078.26,-0.0962201,6.23778,132.734,0.633681,234.34,-3.74784,39.704,-106.629,62.79
4089.96,-0.0988445,6.23601,132.569,0.633093,234.036,-3.72454,39.982,-106.104,62.89
4101.6,-0.101496,6.2342,132.406,0.632466,233.738,-3.70067,40.2407,-105.591,63
4113.18,-0.104174,6.23235,132.246,0.631798,233.422,-3.67488,40.5021,-105.043,63.12
4124.71,-0.106876,6.23047,132.088,0.63109,233.164,-3.65424,40.7041,-104.595,63.22
4136.19,-0.1096,6.22855,131.932,0.63034,232.886,-3.63308,40.9105,-104.111,63.33
4147.61,-0.112344,6.22661,131.779,0.629548,232.615,-3.61412,41.1011,-103.634,63.44
4157.95,-0.115105,6.22464,131.628,0.628712,232.349,-3.5979,41.2767,-103.165,63.55
4169.28,-0.117628,6.22283,131.479,0.627832,232.09,-3.58489,41.438,-102.701,63.66
4180.55,-0.120415,6.22083,131.332,0.626908,231.837,-3.57549,41.5857,-102.242,63.77
4191.78,-0.123212,6.21862,131.187,0.625939,231.59,-3.57005,41.7206,-101.788,63.88
4203.96,-0.126272,6.21658,131.045,0.624924,231.348,-3.56884,41.8433,-101.337,63.99
4214.07,-0.128827,6.21472,130.918,0.623962,231.113,-3.57207,41.9545,-100.89,64.1
4225.15,-0.13164,6.21266,130.78,0.62286,230.904,-3.57897,42.046,-100.485,64.2
4236.18,-0.134453,6.21059,130.645,0.621711,230.66,-3.59233,42.1447,-100.002,64.32
4247.16,-0.137266,6.20851,130.5,0.620405,230.443,-3.60948,42.2249,-99.5604,64.43
4259.08,-0.140331,6.20624,130.37,0.619159,230.232,-3.63127,42.296,-99.1197,64.54
4268.97,-0.142881,6.20434,130.255,0.617986,230.045,-3.65503,42.3532,-98.7195,64.64
4279.8,-0.145681,6.20224,130.13,0.616651,229.846,-3.6854,42.4083,-98.2792,64.75
4290.58,-0.148472,6.20013,130.008,0.615269,229.652,-3.72002,42.4598,-97.7985,64.87
4301.32,-0.151256,6.19802,129.889,0.613841,229.465,-3.75868,42.4963,-97.3972,64.97
4312.01,-0.154029,6.1959,129.773,0.612367,229.284,-3.80114,42.5302,-96.9546,65.08
4322.64,-0.156748,6.19385,129.659,0.610435,229.121,-3.8471,42.4948,-96.5061,65.19
4333.23,-0.159322,6.19205,129.55,0.60718,229.024,-3.89619,42.1407,-96.057,65.3
4342.82,-0.161651,6.19042,129.447,0.603773,228.939,-3.94797,41.766,-95.5906,65.41
4353.31,-0.164208,6.18847,129.348,0.600286,228.861,-4.00197,41.4046,-95.1008,65.52
4363.74,-0.166987,6.18668,129.255,0.596717,228.791,-4.05777,41.0549,-94.5882,65.63
4374.12,-0.169293,6.1849,129.168,0.593042,228.729,-4.11493,40.7108,-94.0536,65.74
4384.44,-0.171819,6.18328,129.094,0.589264,228.676,-4.17303,40.3729,-93.4975,65.85
4394.69,-0.174333,6.1815,129.018,0.585742,228.636,-4.23164,40.0403,-92.9204,65.96
4404.89,-0.17684,6.17971,128.948,0.5818,228.6,-4.28502,39.72,-92.3224,66.07
4415.01,-0.179338,6.17791,128.885,0.577422,228.57,-4.34875,39.412,-91.7041,66.18
4425.07,-0.18215,6.17576,128.822,0.574155,228.526,-4.4065,39.2657,-91.0719,66.29
4435.05,-0.184417,6.17376,128.775,0.57197,228.453,-4.44463,39.3657,-90.4811,66.4
4444.97,-0.186077,6.17157,128.727,0.56957,228.38,-4.45237,39.4843,-89.8339,66.5
4454.81,-0.18713,6.16935,128.684,0.567202,228.309,-4.4299,39.6259,-89.1324,66.62
4464.58,-0.187902,6.1669,128.646,0.565518,228.234,-4.38882,39.8785,-88.5565,66.72
4474.29,-0.188545,6.16423,128.611,0.564498,228.131,-4.32224,40.3055,-87.9302,66.83
4483.92,-0.18912,6.1614,128.579,0.56379,228.021,-4.23548,40.7984,-87.3221,66.94
4493.49,-0.18971,6.15839,128.55,0.563498,227.903,-4.13098,41.3537,-86.7406,67.05
4503,-0.19037,6.15517,128.522,0.563733,227.767,-4.0111,42.0151,-86.1845,67.16
4511.59,-0.191052,6.15207,128.498,0.564376,227.632,-3.89085,42.6793,-85.7092,67.26
4520.99,-0.191903,6.14816,128.469,0.565619,227.452,-3.73508,43.5568,-85.1772,67.38
4531.18,-0.192919,6.14448,128.442,0.566845,227.287,-3.58402,44.3386,-84.7324,67.49
4539.64,-0.19384,6.14107,128.417,0.568011,227.125,-3.42783,45.0902,-84.329,67.6
4548.89,-0.194937,6.13726,128.392,0.569475,226.969,-3.26909,45.8134,-83.9666,67.71
4558.11,-0.196121,6.13339,128.368,0.570748,226.833,-3.12462,46.4476,-83.6721,67.81
4567.3,-0.19739,6.12947,128.347,0.572205,226.677,-2.95354,47.1804,-83.3609,67.93
4577.29,-0.198868,6.12516,128.325,0.573862,226.54,-2.80113,47.8262,-83.1147,68.04
4585.59,-0.200169,6.12153,128.309,0.575296,226.42,-2.66789,48.3925,-82.922,68.14
4594.7,-0.201667,6.11753,128.291,0.576926,226.293,-2.52855,48.9929,-82.7429,68.25
4603.79,-0.203227,6.11351,128.275,0.578607,226.16,-2.38655,49.6209,-82.5854,68.37
4612.87,-0.204841,6.10948,128.259,0.580339,226.053,-2.27722,50.1234,-82.483,68.47
4621.94,-0.206505,6.10545,128.243,0.58212,225.939,-2.16733,50.6551,-82.3995,68.58
4630.18,-0.208211,6.10143,128.227,0.58395,225.828,-2.06907,51.1653,-82.3451,68.69
4640.06,-0.209903,6.09741,128.211,0.585855,225.719,-1.97873,51.6591,-82.3195,68.8
4649.11,-0.211296,6.09339,128.195,0.587891,225.608,-1.88061,52.1535,-82.322,68.91
4657.34,-0.211949,6.08979,128.177,0.589975,225.499,-1.75508,52.6286,-82.3527,69.02
4666.41,-0.212053,6.0855,128.159,0.592092,225.393,-1.60257,53.0815,-82.4103,69.13
4675.47,-0.211546,6.08157,128.14,0.59424,225.288,-1.42263,53.5132,-82.4936,69.24
4684.55,-0.210808,6.078,128.121,0.59622,225.195,-1.22139,53.9249,-82.6012,69.35
4693.65,-0.209819,6.07404,128.099,0.598426,225.083,-1.0039,54.3178,-82.7318,69.46
4702.75,-0.208745,6.07006,128.075,0.600662,224.991,-0.795785,54.6595,-82.8698,69.56
4711.88,-0.207509,6.06631,128.049,0.601948,224.925,-0.559091,54.8698,-83.0318,69.67
4721.02,-0.206017,6.06366,128.021,0.59749,225.167,-0.334539,53.8009,-83.2106,69.79
4730.18,-0.20478,6.06252,127.998,0.589422,225.601,-0.190777,51.8999,-83.3279,69.89
4739.35,-0.203801,6.06195,127.976,0.577791,226.175,-0.0735691,49.297,-83.3522,70
4748.51,-0.202757,6.06244,127.957,0.562051,226.896,0.00368658,45.8594,-83.2346,70.12
4757.65,-0.201922,6.06327,127.946,0.545146,227.6,0.0445969,42.2913,-82.9376,70.22
4766.75,-0.201253,6.06425,127.953,0.527857,228.259,0.0545766,38.8435,-82.4437,70.33
4775.78,-0.200653,6.06539,127.98,0.510189,228.88,0.0379365,35.5213,-81.7571,70.44
4784.72,-0.20004,6.06675,128.026,0.491884,229.48,-0.00213746,32.2525,-80.8836,70.55
4793.56,-0.19941,6.06825,128.091,0.473205,230.053,-0.069059,28.8071,-79.7223,70.67
4801.48,-0.198843,6.06973,128.178,0.454167,230.607,-0.14533,26.0351,-78.591,70.77
4810.06,-0.198431,6.07163,128.287,0.434812,231.149,-0.251974,23.0915,-77.1799,70.88
4818.47,-0.198205,6.07337,128.419,0.415635,231.676,-0.37671,20.3418,-75.6077,70.99
4826.7,-0.19815,6.07485,128.556,0.398844,232.135,-0.503526,18.1309,-74.0429,71.09
4835.45,-0.198302,6.07651,128.738,0.379457,232.666,-0.675942,15.8181,-72.0065,71.21
4842.56,-0.198765,6.07778,128.906,0.363865,233.104,-0.833851,14.1417,-70.192,71.31
4850.15,-0.199715,6.07886,129.108,0.348356,233.576,-1.03987,12.653,-67.8961,71.43
4857.51,-0.201069,6.07979,129.349,0.332696,234.097,-1.2397,11.683,-65.6897,71.54
4864.62,-0.202614,6.08052,129.568,0.319992,234.553,-1.42855,10.9345,-63.6252,71.64
4871.48,-0.204268,6.08128,129.828,0.306302,235.08,-1.64327,10.2272,-61.2986,71.75
4878.08,-0.206079,6.08199,130.109,0.292959,235.636,-1.86513,9.59529,-58.7019,71.87
4884.42,-0.208124,6.08261,130.411,0.280035,236.222,-2.09106,9.19402,-56.4961,71.97
4890.49,-0.210325,6.08317,130.733,0.267344,236.841,-2.31818,8.83217,-54.0333,72.08
4896.28,-0.212622,6.08366,131.077,0.254973,237.494,-2.54473,8.56305,-51.5387,72.19
4901.31,-0.21505,6.08407,131.443,0.242877,238.181,-2.77087,8.38164,-49.0147,72.3
4907.04,-0.217642,6.08441,131.831,0.230946,238.905,-2.9931,8.24006,-46.2353,72.42
4911.56,-0.220141,6.08468,132.24,0.21922,239.666,-3.20977,8.17086,-43.9017,72.52
4916.26,-0.222984,6.08482,132.671,0.207818,240.463,-3.41849,8.17049,-41.3195,72.63
4921.06,-0.226136,6.08488,133.124,0.196647,241.296,-3.61795,8.23068,-38.724,72.74
4924.8,-0.228768,6.08486,133.555,0.186599,242.087,-3.78963,8.30653,-36.3574,72.84
4928.65,-0.231661,6.08473,134.049,0.174807,243.076,-3.98131,8.44687,-33.5117,72.96
4932.2,-0.234555,6.08446,134.565,0.165265,243.933,-4.12828,8.64863,-30.8979,73.07
4935.47,-0.237594,6.08387,135.103,0.155734,244.904,-4.2898,9.07312,-28.2909,73.18
4938.45,-0.240874,6.08283,135.714,0.146571,245.994,-4.42188,9.76147,-25.6895,73.29
4941.15,-0.244301,6.08183,136.242,0.139083,246.935,-4.5281,10.389,-23.3484,73.39
4943.56,-0.247819,6.08062,136.842,0.131015,248.003,-4.62971,11.0819,-20.8035,73.5
4945.7,-0.251416,6.07928,137.462,0.12307,249.105,-4.72412,11.8203,-18.064,73.62
4947.56,-0.255318,6.07781,138.102,0.115258,250.242,-4.79287,12.4221,-15.8094,73.72
4949.16,-0.259543,6.0761,138.761,0.108,251.406,-4.85552,13.1785,-13.3616,73.83
4950.48,-0.263965,6.07428,139.439,0.100837,252.603,-4.90656,13.9226,-10.9478,73.94
4951.54,-0.268521,6.07238,140.136,0.0937015,253.833,-4.94738,14.6186,-8.57224,74.05
4952.34,-0.273209,6.06996,140.849,0.0881475,255.074,-4.9797,15.7323,-6.03585,74.17
4952.85,-0.277571,6.06732,141.513,0.0840995,256.317,-5.00865,16.9987,-3.95978,74.27
4953.18,-0.282647,6.06394,142.327,0.0803618,257.58,-5.04022,18.4079,-1.74484,74.38
4953.26,-0.288014,6.06099,143.02,0.0772287,258.865,-5.07505,19.7881,0.381732,74.49
4953.12,-0.29373,6.05704,143.796,0.0759986,260.131,-5.12634,21.6495,2.41788,74.6
4952.75,-0.300287,6.05182,144.585,0.0784071,261.213,-5.21012,24.4529,4.35495,74.71
4952.18,-0.307417,6.04641,145.381,0.081261,262.387,-5.31805,26.9667,5.98848,74.81
4951.43,-0.314898,6.04107,146.178,0.0837403,263.569,-5.49329,29.6728,7.75567,74.93
4950.5,-0.32335,6.03512,147.049,0.0867507,264.851,-5.70226,32.0409,9.20009,75.04
4949.42,-0.330854,6.03,147.775,0.0896685,265.905,-5.9493,34.1646,10.3784,75.15
4948.21,-0.339991,6.02479,148.572,0.0915695,267.105,-6.30649,36.0421,11.5466,75.25
4946.88,-0.350248,6.01967,149.37,0.0931789,268.334,-6.7972,37.7588,12.6575,75.37
4945.44,-0.361171,6.01443,150.168,0.0951886,269.554,-7.28051,39.1765,13.4853,75.47
4943.9,-0.372386,6.00911,150.964,0.0975588,270.765,-7.88392,40.7137,14.2946,75.58
4942.29,-0.383789,6.00368,151.759,0.100264,271.966,-8.5629,42.222,15.0006,75.69
4940.6,-0.395488,5.99815,152.55,0.103257,273.157,-9.31792,43.6912,15.6055,75.8
4938.85,-0.407363,5.99251,153.337,0.106499,274.339,-10.1374,45.108,16.1494,75.92
4937.22,-0.418177,5.98726,154.12,0.110043,275.507,-11.0106,46.4963,16.5138,76.02
4935.39,-0.430064,5.9813,154.898,0.113864,276.661,-11.9275,47.8547,16.8228,76.13
4933.36,-0.442884,5.97463,155.669,0.117822,277.805,-12.8732,49.1572,17.0386,76.24
4931.65,-0.453361,5.96896,156.364,0.121434,278.946,-13.8322,50.3577,17.1606,76.35
4929.76,-0.464631,5.96247,157.121,0.125607,279.969,-14.7896,51.5344,17.1967,76.46
4927.87,-0.475611,5.9557,157.87,0.129953,281.079,-15.647,52.5825,17.1568,76.56
4925.99,-0.486294,5.9486,158.609,0.134445,282.172,-16.5638,53.7121,17.0343,76.67
4924.12,-0.496689,5.94116,159.339,0.139054,283.25,-17.4413,54.8177,16.8311,76.78
4922.29,-0.506854,5.93333,160.06,0.143752,284.312,-18.2729,55.8991,16.5218,76.9
4920.49,-0.517303,5.92508,160.771,0.148508,285.36,-19.0818,57.0458,16.1682,77.01
4918.73,-0.528717,5.91632,161.475,0.153326,286.398,-19.9654,58.0657,15.7472,77.12
4917.02,-0.540706,5.90709,162.173,0.158205,287.425,-20.685,58.974,15.3061,77.22
4915.37,-0.552933,5.89741,162.864,0.163113,288.442,-21.445,59.9511,14.7594,77.33
4913.92,-0.565216,5.88728,163.547,0.168022,289.451,-22.1605,60.9045,14.1515,77.44
4912.26,-0.577461,5.87671,164.222,0.172903,290.451,-22.822,61.834,13.4853,77.55
4910.95,-0.58853,5.86568,164.889,0.177729,291.444,-23.4221,62.7393,12.7639,77.66
4909.59,-0.600684,5.85526,165.488,0.18246,292.43,-23.9574,63.6155,11.9909,77.77
4908.31,-0.612875,5.84224,166.198,0.187072,293.411,-24.4243,64.4624,11.1693,77.88
4907.02,-0.625798,5.82983,166.838,0.191556,294.387,-24.7813,65.2867,10.2887,77.99
4906.04,-0.635001,5.81825,167.411,0.195847,295.361,-24.9488,66.1003,9.35274,78.1
4905.06,-0.644052,5.80515,168.033,0.199878,296.339,-24.9508,66.8803,8.37084,78.21
4904.19,-0.652555,5.7916,168.646,0.203326,297.318,-24.8062,67.6323,7.34508,78.32
4903.43,-0.660862,5.77756,169.304,0.207198,298.296,-24.5317,68.3589,6.27846,78.43
4902.8,-0.669941,5.76169,169.898,0.210502,299.272,-24.143,69.062,5.17445,78.54
4902.28,-0.677637,5.74805,170.43,0.21331,300.154,-23.7036,69.6817,4.14151,78.64
4901.9,-0.686312,5.73261,171.006,0.216196,301.118,-23.1407,70.3427,2.97669,78.76
4901.64,-0.695258,5.71677,171.573,0.218882,302.073,-22.5101,70.9825,1.78586,78.86
4901.52,-0.704507,5.70054,172.131,0.221383,303.018,-21.8284,71.6018,0.573105,78.97
4901.53,-0.71408,5.68398,172.679,0.223715,303.951,-21.1122,72.2005,-0.65744,79.08
4901.68,-0.72399,5.66711,173.218,0.225895,304.871,-20.378,72.779,-1.90165,79.19
4901.96,-0.734241,5.64998,173.748,0.22794,305.776,-19.6416,73.3372,-3.15541,79.3
4902.34,-0.743856,5.63421,174.268,0.229867,306.666,-18.9183,73.8749,-4.41467,79.41
4902.89,-0.75475,5.61668,174.733,0.231693,307.54,-18.2221,74.392,-5.67542,79.52
4903.57,-0.765969,5.59898,175.28,0.233434,308.398,-17.5661,74.8881,-6.93373,79.63
4904.48,-0.778559,5.57953,175.772,0.235104,309.24,-16.9618,75.363,-8.18577,79.74
4905.36,-0.789316,5.56323,176.211,0.236573,309.991,-16.419,75.8163,-9.42778,79.85
4906.46,-0.801406,5.54521,176.685,0.238286,310.875,-15.9459,76.2476,-10.6562,79.96
4907.69,-0.813743,5.52714,177.15,0.23968,311.669,-15.549,76.6565,-11.8674,80.07
4909.06,-0.826302,5.50902,177.606,0.241186,312.448,-15.2326,77.0428,-13.0582,80.18
4910.55,-0.839058,5.48921,178.094,0.242803,313.212,-14.9996,77.4063,-14.2253,80.29
4912.18,-0.851982,5.47268,178.492,0.24413,313.894,-14.8607,77.7169,-15.2631,80.4
4913.92,-0.865005,5.45447,178.922,0.245572,314.631,-14.783,78.037,-16.3788,80.5
4915.79,-0.877521,5.43627,179.343,0.247003,315.356,-14.7333,78.337,-17.4785,80.61
4917.78,-0.88867,5.41817,179.756,0.248402,316.073,-14.6484,78.611,-18.5594,80.72
4919.88,-0.899007,5.40008,180.16,0.249733,316.785,-14.5514,78.8551,-19.6148,80.83
4921.9,-0.908968,5.38196,180.557,0.25099,317.487,-14.4591,79.0794,-20.6444,80.94
4924.22,-0.918777,5.36378,180.947,0.252169,318.179,-14.381,79.2887,-21.6473,81.05
4926.65,-0.927653,5.34717,181.329,0.253268,318.86,-14.3213,79.4856,-22.6226,81.16
4929.18,-0.937351,5.32883,181.67,0.254284,319.53,-14.2768,79.6715,-23.5699,81.27
4931.82,-0.947,5.30873,182.072,0.255214,320.19,-14.2487,79.8463,-24.4868,81.38
4934.56,-0.95665,5.2919,182.433,0.256052,320.84,-14.2388,80.0109,-25.3721,81.49
4937.39,-0.966204,5.27331,182.756,0.256736,321.422,-14.2356,80.1669,-26.2282,81.6
4940.32,-0.975547,5.25466,183.105,0.25739,322.054,-14.2328,80.3104,-27.0515,81.71
4943.34,-0.984595,5.23654,183.448,0.257544,322.723,-14.2304,80.2571,-27.7673,81.81
4946.44,-0.992958,5.22003,183.786,0.256545,323.61,-14.2117,79.5287,-28.58,81.93
4949.61,-1.00073,5.20487,184.12,0.254581,324.443,-14.1836,78.5006,-29.1923,82.04
4952.86,-1.008,5.19132,184.449,0.251528,325.48,-14.1465,76.817,-29.7849,82.15
4956.17,-1.01514,5.17826,184.776,0.248098,326.524,-14.1086,75.0342,-30.2641,82.25
4959.52,-1.02213,5.16586,185.101,0.244202,327.572,-14.0727,73.1639,-30.6155,82.37
4962.9,-1.02886,5.15404,185.424,0.239913,328.627,-14.0271,71.1867,-30.8516,82.47
4966.3,-1.03509,5.14251,185.747,0.235441,329.661,-13.9554,69.2448,-30.9682,82.58
4969.71,-1.04095,5.13031,186.068,0.231313,330.623,-13.8468,67.5895,-30.9815,82.69
4973.11,-1.04681,5.1161,186.389,0.228255,331.375,-13.7036,66.9321,-30.8777,82.8
4976.19,-1.05189,5.10204,186.711,0.224999,332.131,-13.5335,66.2574,-30.7134,82.91
4979.56,-1.05688,5.09043,187.003,0.220855,332.96,-13.3224,65.2129,-30.4868,83.02
4982.9,-1.06168,5.07763,187.363,0.216117,333.876,-13.075,63.7756,-30.2083,83.13
4986.21,-1.06571,5.06589,187.672,0.212289,334.713,-12.793,62.8312,-29.8587,83.24
4989.47,-1.06996,5.05132,188.018,0.208879,335.419,-12.4561,62.639,-29.4418,83.35
4992.69,-1.0733,5.0367,188.367,0.205412,336.127,-12.0394,62.4807,-29.0118,83.46
4995.86,-1.07536,5.02174,188.72,0.20206,336.752,-11.573,62.4748,-28.6085,83.57
4998.98,-1.0766,5.00674,189.075,0.198318,337.508,-10.9348,62.4756,-28.111,83.68
5002.05,-1.07743,4.98996,189.471,0.194984,338.184,-10.2861,62.6017,-27.6513,83.79
5005.07,-1.07766,4.97584,189.806,0.191953,338.792,-9.64348,62.7647,-27.232,83.89
5008.03,-1.07761,4.96019,190.176,0.18861,339.462,-8.9035,62.946,-26.7713,84
5010.95,-1.0776,4.94397,190.548,0.185521,340.098,-8.1497,63.3518,-26.2699,84.12
5013.82,-1.07766,4.92771,190.919,0.182446,340.733,-7.40084,63.6865,-25.8564,84.22
5016.63,-1.07787,4.91138,191.291,0.179435,341.366,-6.67419,64.0499,-25.4087,84.33
5019.4,-1.07771,4.89503,191.662,0.176537,341.999,-5.94407,64.4068,-24.9862,84.44
5022.13,-1.07673,4.87872,192.033,0.173776,342.633,-5.2024,64.7467,-24.5799,84.55
5024.81,-1.07534,4.86243,192.404,0.171154,343.267,-4.40815,65.1032,-24.1537,84.67
5027.21,-1.07366,4.84763,192.775,0.168704,343.901,-3.74924,65.3935,-23.824,84.77
5029.81,-1.0709,4.83141,193.146,0.166454,344.534,-3.00336,65.7009,-23.4951,84.88
5032.61,-1.06621,4.81374,193.515,0.164463,345.166,-2.19987,66.0082,-23.2142,84.99
5034.92,-1.06091,4.79897,193.851,0.162765,345.786,-1.33839,66.3572,-22.9727,85.1
5037.44,-1.05436,4.78277,194.219,0.161392,346.405,-0.457001,66.6852,-22.7723,85.21
5039.94,-1.04744,4.76658,194.585,0.160089,347.02,0.423688,67.0087,-22.6175,85.32
5042.42,-1.0403,4.7504,194.95,0.159028,347.631,1.28916,67.3302,-22.5115,85.43
5044.89,-1.03215,4.73279,195.346,0.158181,348.235,2.13681,67.6497,-22.4572,85.54
5047.36,-1.02526,4.71815,195.674,0.157738,348.78,2.87275,67.9398,-22.4506,85.65
5049.83,-1.01771,4.70209,196.032,0.157547,349.373,3.62916,68.262,-22.4923,85.75
5052.31,-1.01026,4.6861,196.387,0.157689,350.011,4.37602,68.618,-22.5972,85.87
5054.81,-1.00296,4.67018,196.739,0.15818,350.536,4.92452,68.9191,-22.7328,85.97
5057.32,-0.995831,4.65436,197.087,0.159038,351.107,5.44302,69.2548,-22.9343,86.08
5059.85,-0.988835,4.63865,197.431,0.160274,351.67,5.86833,69.5946,-23.1918,86.19
5062.42,-0.981967,4.62307,197.773,0.161895,352.229,6.19742,69.9381,-23.5067,86.3
5065.03,-0.975219,4.60761,198.111,0.163901,352.783,6.42907,70.3163,-23.9172,86.42
5067.44,-0.969181,4.59368,198.416,0.166289,353.331,6.5646,70.6337,-24.3142,86.52
5070.14,-0.962032,4.57712,198.777,0.169053,353.873,6.60769,70.9842,-24.8098,86.63
5073.15,-0.955548,4.56208,199.104,0.172179,354.409,6.56412,71.3353,-25.3686,86.74
5075.72,-0.949691,4.54854,199.398,0.175325,354.891,6.44152,71.6863,-25.9922,86.85
5078.61,-0.943265,4.53376,199.745,0.17946,355.46,6.24919,72.0362,-26.6818,86.96
5081.58,-0.936837,4.51912,200.029,0.183188,355.927,6.02235,72.3526,-27.367,87.06
5084.64,-0.930393,4.5046,200.337,0.187564,356.432,5.69676,72.7296,-28.2638,87.18
5087.79,-0.923918,4.48887,200.666,0.192638,356.972,5.35923,73.0717,-29.1582,87.29
5091.05,-0.917403,4.47585,200.935,0.197082,357.413,5.03016,73.3794,-30.0321,87.39
5094.41,-0.91084,4.46161,201.225,0.202174,357.886,4.65455,73.7135,-31.0607,87.5
5097.9,-0.904227,4.44743,201.508,0.207456,358.348,4.27574,74.0426,-32.1602,87.61
5101.5,-0.897519,4.4333,201.784,0.212904,358.798,3.90802,74.3658,-33.332,87.72
5105.24,-0.890651,4.41922,202.053,0.218499,359.234,3.56658,74.6821,-34.5767,87.83
5108.77,-0.883516,4.40517,202.314,0.22422,359.656,3.26956,74.9904,-35.8957,87.94
5113.16,-0.87614,4.39114,202.567,0.230046,360.065,3.02664,75.2902,-37.2888,88.05
5116.96,-0.869079,4.37853,202.811,0.235714,360.469,2.86013,75.5302,-38.7523,88.16
5121.3,-0.859315,4.36773,203.027,0.238975,361.148,2.86717,74.3763,-40.3091,88.27
5125.81,-0.845809,4.35833,203.256,0.241262,361.91,3.16775,72.7013,-41.902,88.38
5130.93,-0.828301,4.3495,203.499,0.242439,362.741,3.69038,70.5528,-43.4778,88.49
5135.36,-0.812547,4.34279,203.704,0.242809,363.607,4.38142,68.1654,-45.0108,88.6
5140.85,-0.792589,4.33529,203.96,0.242538,364.49,5.22417,65.672,-46.4884,88.71
5145.57,-0.775037,4.3289,204.183,0.242305,365.251,6.11507,63.4179,-47.8929,88.82
5150.91,-0.755158,4.32178,204.435,0.242021,366.051,7.29897,61.3565,-49.228,88.93
5156.38,-0.732981,4.31424,204.715,0.241394,366.903,8.46399,59.332,-50.4972,89.04
5162,-0.713723,4.30795,204.953,0.24093,367.585,9.59811,57.6239,-51.6095,89.15
5167.75,-0.691749,4.30104,205.218,0.240551,368.301,10.8983,55.9054,-52.7766,89.25
5173.62,-0.669249,4.29416,205.486,0.240359,368.984,12.2246,54.3484,-53.8941,89.36
5179.61,-0.646041,4.28736,205.755,0.240411,369.637,13.565,52.9381,-54.9717,89.47
5185.72,-0.622325,4.28069,206.026,0.24075,370.263,14.8862,51.6672,-56.0124,89.58
5191.95,-0.598401,4.2742,206.297,0.241412,370.864,16.1522,50.5304,-57.0206,89.69
